{"version": 0.6, "generator": "Overpass API 0.7.62.4 2390de5a", "osm3s": {"timestamp_osm_base": "2025-01-05T17:45:43Z", "copyright": "The data included in this document is from www.openstreetmap.org. The data is made available under ODbL."}, "elements": [{"type": "node", "id": 267983, "lat": 51.3070558, "lon": -1.5120558, "tags": {"alt_name": "Vernhams Green", "description": "A village in the Test Valley district of Hampshire, England", "is_in": "Hampshire, England, UK", "name": "Vernham Dean", "place": "village", "population": "552", "postal_code": "SP11", "wikidata": "Q7922016", "wikipedia": "en:Vernham Dean"}}, {"type": "node", "id": 29674451, "lat": 51.1657413, "lon": -2.5864648, "tags": {"name": "Pilton", "place": "village", "source": "npe"}}, {"type": "node", "id": 253328009, "lat": 51.3198054, "lon": -1.4762773, "tags": {"name": "Linkenholt", "place": "village", "wikidata": "Q2291950"}}, {"type": "node", "id": 259010213, "lat": 51.1737297, "lon": -2.4140093, "tags": {"name": "Wanstrow", "place": "village", "wikidata": "Q5112265", "wikipedia": "en:Wanstrow"}}, {"type": "node", "id": 290846486, "lat": 51.36299, "lon": -1.4125817, "tags": {"name": "North End", "place": "hamlet"}}, {"type": "node", "id": 290848348, "lat": 51.3668222, "lon": -1.3988079, "tags": {"name": "Ball Hill", "place": "hamlet"}}, {"type": "node", "id": 309083295, "lat": 51.369644, "lon": -1.3567473, "tags": {"is_in": "Berkshire", "name": "Enborne Row", "place": "village", "wikidata": "Q5375280"}}, {"type": "node", "id": 311110208, "lat": 51.1539499, "lon": -2.8781856, "tags": {"is_in": "Somerset, England, UK", "name": "Edington", "name:ru": "\u042d\u0434\u0438\u043d\u0433\u0442\u043e\u043d", "place": "village", "population": "734", "source": "npe", "wikidata": "Q2189445", "wikipedia": "en:Edington, Somerset"}}, {"type": "node", "id": 311111221, "lat": 51.1499951, "lon": -2.8664033, "tags": {"is_in": "Somerset, England, UK", "name": "Catcott", "name:ru": "\u041a\u044d\u0442\u043a\u043e\u0442\u0442", "place": "village", "population": "903", "source": "npe", "wikidata": "Q583056", "wikipedia": "en:Catcott"}}, {"type": "node", "id": 340474117, "lat": 51.2069468, "lon": -1.916128, "tags": {"is_in": "Wiltshire, England, UK", "name": "Orcheston", "place": "village"}}, {"type": "node", "id": 357923055, "lat": 51.2229562, "lon": -1.7818847, "tags": {"name": "Figheldean", "place": "village"}}, {"type": "node", "id": 358049436, "lat": 51.2212116, "lon": -1.7749988, "tags": {"name": "Ablington", "odbl": "clean", "place": "hamlet"}}, {"type": "node", "id": 408931032, "lat": 51.3568027, "lon": -1.407609, "tags": {"name": "Heath End", "place": "hamlet"}}, {"type": "node", "id": 619489120, "lat": 51.2824729, "lon": -1.5582672, "tags": {"is_in": "Wiltshire, England, UK", "name": "Chute Standen", "place": "hamlet"}}, {"type": "node", "id": 642366110, "lat": 51.2835397, "lon": -1.5742954, "tags": {"name": "Upper Chute", "place": "village", "wikidata": "Q5118367"}}, {"type": "node", "id": 660624157, "lat": 51.3205171, "lon": -1.5001416, "tags": {"alt_name": "Little Down", "name": "Littledown", "place": "hamlet", "source:name": "OS-OpenData_StreetView", "wikidata": "Q6649837"}}, {"type": "node", "id": 660882874, "lat": 51.3773326, "lon": -1.3476063, "tags": {"is_in": "Berkshire", "name": "Wash Common", "place": "suburb", "source": "NPE", "wikidata": "Q7971416"}}, {"type": "node", "id": 1208157462, "lat": 51.171453, "lon": -2.5529371, "tags": {"name": "East Compton", "place": "hamlet", "source": "OS7"}}, {"type": "node", "id": 1208157476, "lat": 51.1697579, "lon": -2.4854205, "tags": {"is_in": "Somerset, England, UK", "name": "Chesterblade", "place": "hamlet", "source": "OS7"}}, {"type": "node", "id": 1208157499, "lat": 51.1748602, "lon": -2.5358517, "tags": {"alt_name": "Cannards Grave", "name": "Cannard's Grave", "place": "hamlet", "source:alt_name": "OS7", "source:name": "OS_OpenMap_Local"}}, {"type": "node", "id": 1208157508, "lat": 51.1646719, "lon": -2.6125307, "tags": {"name": "Westholme", "place": "hamlet", "source": "OS7"}}, {"type": "node", "id": 1208157538, "lat": 51.1651583, "lon": -2.5703102, "tags": {"is_in:village": "Pilton", "name": "East Town", "place": "hamlet", "source": "OS OpenData StreetView"}}, {"type": "node", "id": 1209210680, "lat": 51.1759024, "lon": -2.5050564, "tags": {"name": "Brottens", "place": "hamlet", "source": "npe"}}, {"type": "node", "id": 1209210924, "lat": 51.1702893, "lon": -2.5377994, "tags": {"name": "Beardly Batch", "place": "hamlet", "source": "OS7"}}, {"type": "node", "id": 1348021728, "lat": 51.1931765, "lon": -2.176179, "tags": {"name": "Henfords Marsh", "place": "hamlet"}}, {"type": "node", "id": 1369042447, "lat": 51.1765445, "lon": -2.4259204, "tags": {"name": "Weston Town", "place": "hamlet"}}, {"type": "node", "id": 2009464083, "lat": 51.1969884, "lon": -2.1584899, "tags": {"name": "Boreham", "place": "suburb"}}, {"type": "node", "id": 2009464087, "lat": 51.1934111, "lon": -2.1539973, "tags": {"name": "Bishopstrow", "place": "village"}}, {"type": "node", "id": 2984656246, "lat": 51.1877225, "lon": -2.1912064, "tags": {"name": "Sutton End", "place": "hamlet"}}, {"type": "node", "id": 3032255221, "lat": 51.3866705, "lon": -1.3025587, "tags": {"name": "Greenham", "place": "village", "source": "os25k"}}, {"type": "node", "id": 7108044385, "lat": 51.3155239, "lon": -1.5003274, "tags": {"name": "Vernham Street", "place": "village", "source": "OS-OpenData_StreetView", "wikidata": "Q7922015"}}, {"type": "node", "id": 10989251434, "lat": 51.1704473, "lon": -2.6010293, "tags": {"name": "Upper Westholme", "place": "hamlet"}}]}